{"type":"FeatureCollection","features":[{"type":"Feature","id":1,"geometry":{"type":"Point","coordinates":[54.084697984327313,17.012648255392602]},"properties":{"OBJECTID":1,"Asset_ID":"B1","Name":"National Bank of Oman","District_ID":"Salalah al Gharbiyya","Gov_ID":"2","Wlyt_ID":" Salalah","Road_ID":null,"Latitude":17.012648259999999,"Longitude":54.084697980000001,"GlobalID":"{496AB3FB-3FE9-4F83-9EEE-9C1505079BC6}"}},{"type":"Feature","id":2,"geometry":{"type":"Point","coordinates":[54.087418830525728,17.014712542059993]},"properties":{"OBJECTID":2,"Asset_ID":"B2","Name":"National Bank of Oman","District_ID":"Salalah al Jadida","Gov_ID":"2","Wlyt_ID":" Salalah","Road_ID":null,"Latitude":17.014712540000001,"Longitude":54.087418829999997,"GlobalID":"{E4EE62A2-6773-4D9A-A38E-404D330A0E28}"}},{"type":"Feature","id":3,"geometry":{"type":"Point","coordinates":[54.090766639958595,17.021677118515861]},"properties":{"OBJECTID":3,"Asset_ID":"B3","Name":"Central Bank of Oman","District_ID":"Salalah al Jadida","Gov_ID":"2","Wlyt_ID":" Salalah","Road_ID":null,"Latitude":17.02167712,"Longitude":54.090766639999998,"GlobalID":"{397F85EC-4F2E-49ED-9A5C-24BAB0C1E5B2}"}},{"type":"Feature","id":4,"geometry":{"type":"Point","coordinates":[54.165788272239084,17.036613727254394]},"properties":{"OBJECTID":4,"Asset_ID":"B4","Name":"Sohar International Bank","District_ID":"al Sada al Janubiyya","Gov_ID":"2","Wlyt_ID":" Salalah","Road_ID":null,"Latitude":17.036613729999999,"Longitude":54.16578827,"GlobalID":"{68BB867D-4D82-46EF-BCAA-7DDC768FBE86}"}},{"type":"Feature","id":5,"geometry":{"type":"Point","coordinates":[54.145749919580425,17.035894327028423]},"properties":{"OBJECTID":5,"Asset_ID":"B5","Name":"Dhofar Islamic Bank","District_ID":"al Sada al Janubiyya","Gov_ID":"2","Wlyt_ID":" Salalah","Road_ID":null,"Latitude":17.035894330000001,"Longitude":54.14574992,"GlobalID":"{7F27B8DD-E932-4FB4-83B9-762DE04AE05A}"}},{"type":"Feature","id":6,"geometry":{"type":"Point","coordinates":[54.159519737608782,17.025632283771916]},"properties":{"OBJECTID":6,"Asset_ID":"B6","Name":"Bank Muscat","District_ID":"Dahariz al Shamaliyya","Gov_ID":"2","Wlyt_ID":" Salalah","Road_ID":null,"Latitude":17.02563228,"Longitude":54.15951974,"GlobalID":"{09B9AF20-0284-4AB0-A2C3-78A953104890}"}},{"type":"Feature","id":7,"geometry":{"type":"Point","coordinates":[54.078295799657916,17.008912000043637]},"properties":{"OBJECTID":7,"Asset_ID":"B7","Name":"Dhofar Bank","District_ID":"Salalah al Gharbiyya","Gov_ID":"2","Wlyt_ID":" Salalah","Road_ID":null,"Latitude":17.008911999999999,"Longitude":54.078295799999999,"GlobalID":"{716CC456-FF45-4D23-BE27-0DE14BE6DFA1}"}},{"type":"Feature","id":8,"geometry":{"type":"Point","coordinates":[54.11194444006896,17.023888890140032]},"properties":{"OBJECTID":8,"Asset_ID":"B8","Name":"National Bank of Abu Dhabi","District_ID":"al Huseela","Gov_ID":"2","Wlyt_ID":" Salalah","Road_ID":null,"Latitude":17.023888889999998,"Longitude":54.111944440000002,"GlobalID":"{FBB8AEB5-FE8C-4F2B-A970-BB5C596C7D62}"}},{"type":"Feature","id":9,"geometry":{"type":"Point","coordinates":[54.087104200088682,17.017814499808551]},"properties":{"OBJECTID":9,"Asset_ID":"B9","Name":"Dhofar Bank","District_ID":"Salalah al Jadida","Gov_ID":"2","Wlyt_ID":" Salalah","Road_ID":null,"Latitude":17.0178145,"Longitude":54.087104199999999,"GlobalID":"{27F195F6-D4D3-456B-B4E8-F972E9CDCCD1}"}},{"type":"Feature","id":10,"geometry":{"type":"Point","coordinates":[54.145292000264348,17.091357499948401]},"properties":{"OBJECTID":10,"Asset_ID":"B10","Name":"Dhofar Bank","District_ID":"Salalah Wellfield","Gov_ID":"2","Wlyt_ID":" Salalah","Road_ID":null,"Latitude":17.091357500000001,"Longitude":54.145291999999998,"GlobalID":"{2B385426-A393-4222-B77F-CA3272501C5E}"}},{"type":"Feature","id":11,"geometry":{"type":"Point","coordinates":[54.097403899949249,17.017019400132735]},"properties":{"OBJECTID":11,"Asset_ID":"B11","Name":"Dhofar Bank","District_ID":"Markaz al Madena","Gov_ID":"2","Wlyt_ID":" Salalah","Road_ID":null,"Latitude":17.017019399999999,"Longitude":54.097403900000003,"GlobalID":"{B20CCE2D-D5EA-47E5-A5E3-86473445D280}"}},{"type":"Feature","id":12,"geometry":{"type":"Point","coordinates":[54.066188299567898,17.022082199769411]},"properties":{"OBJECTID":12,"Asset_ID":"B12","Name":"Dhofar Bank","District_ID":"Salalah Airport","Gov_ID":"2","Wlyt_ID":" Salalah","Road_ID":null,"Latitude":17.0220822,"Longitude":54.0661883,"GlobalID":"{E0765B27-A575-438F-9415-E503F5648B45}"}},{"type":"Feature","id":13,"geometry":{"type":"Point","coordinates":[54.149572800086531,17.051809900108186]},"properties":{"OBJECTID":13,"Asset_ID":"B13","Name":"Dhofar Bank","District_ID":"al Sada al Janubiyya","Gov_ID":"2","Wlyt_ID":" Salalah","Road_ID":null,"Latitude":17.051809899999999,"Longitude":54.149572800000001,"GlobalID":"{CE264BF3-2D19-4284-9D27-EDEF1F24ABE7}"}},{"type":"Feature","id":14,"geometry":{"type":"Point","coordinates":[54.101947220179554,17.000633329811613]},"properties":{"OBJECTID":14,"Asset_ID":"B14","Name":"National Bank of Oman","District_ID":"al Husn","Gov_ID":"2","Wlyt_ID":" Salalah","Road_ID":null,"Latitude":17.000633329999999,"Longitude":54.10194722,"GlobalID":"{974637D8-948F-4800-B474-0B7EDCCA1638}"}},{"type":"Feature","id":15,"geometry":{"type":"Point","coordinates":[54.087411109667926,17.014708330133338]},"properties":{"OBJECTID":15,"Asset_ID":"B15","Name":"National Bank of Oman","District_ID":"Salalah al Jadida","Gov_ID":"2","Wlyt_ID":" Salalah","Road_ID":null,"Latitude":17.014708330000001,"Longitude":54.087411109999998,"GlobalID":"{8663022E-3F9E-4B83-9947-189C6D4F8C10}"}},{"type":"Feature","id":16,"geometry":{"type":"Point","coordinates":[54.086665999922658,17.010719000112889]},"properties":{"OBJECTID":16,"Asset_ID":"B16","Name":"HSBC ","District_ID":"Salalah al Gharbiyya","Gov_ID":"2","Wlyt_ID":" Salalah","Road_ID":null,"Latitude":17.010719000000002,"Longitude":54.086666000000001,"GlobalID":"{CDEEE414-4287-42CC-9091-6A842F16EC61}"}},{"type":"Feature","id":17,"geometry":{"type":"Point","coordinates":[54.055052779718267,17.004769440436725]},"properties":{"OBJECTID":17,"Asset_ID":"B17","Name":"National Bank of Oman","District_ID":"Mustashfa al Sultan Qboos","Gov_ID":"2","Wlyt_ID":" Salalah","Road_ID":null,"Latitude":17.00476944,"Longitude":54.055052779999997,"GlobalID":"{A1790D68-9DCD-4977-BF7F-2EBAA6F194EE}"}},{"type":"Feature","id":18,"geometry":{"type":"Point","coordinates":[54.093638889600861,17.015502779736469]},"properties":{"OBJECTID":18,"Asset_ID":"B18","Name":"National Bank of Oman","District_ID":"Salalah al Wousta","Gov_ID":"2","Wlyt_ID":" Salalah","Road_ID":null,"Latitude":17.015502779999998,"Longitude":54.093638890000001,"GlobalID":"{77B2308C-6D3A-4BC5-A0DC-EFD8E7782D88}"}},{"type":"Feature","id":19,"geometry":{"type":"Point","coordinates":[54.106655130568107,17.01887999504515]},"properties":{"OBJECTID":19,"Asset_ID":"B19","Name":"Bank Sohar","District_ID":"al Qoaf","Gov_ID":"2","Wlyt_ID":" Salalah","Road_ID":null,"Latitude":17.018879999999999,"Longitude":54.10665513,"GlobalID":"{8E6F9C7D-F107-4B58-94C2-E3E42B99872C}"}},{"type":"Feature","id":20,"geometry":{"type":"Point","coordinates":[54.09413090735292,17.012065407781712]},"properties":{"OBJECTID":20,"Asset_ID":"B20","Name":"Habib Bank AG Zurich","District_ID":"Salalah al Wousta","Gov_ID":"2","Wlyt_ID":" Salalah","Road_ID":null,"Latitude":17.012065410000002,"Longitude":54.094130909999997,"GlobalID":"{4EDB88F0-AA3B-4DB9-89C3-31F9A459AFCB}"}},{"type":"Feature","id":21,"geometry":{"type":"Point","coordinates":[54.096451189791175,17.01366692400677]},"properties":{"OBJECTID":21,"Asset_ID":"B21","Name":"Bank of Baroda","District_ID":"Salalah al Wousta","Gov_ID":"2","Wlyt_ID":" Salalah","Road_ID":null,"Latitude":17.013666919999999,"Longitude":54.096451190000003,"GlobalID":"{4545FF47-14E3-4123-A71B-AFF2C04A4BD4}"}},{"type":"Feature","id":22,"geometry":{"type":"Point","coordinates":[54.150673041103381,17.051924850621347]},"properties":{"OBJECTID":22,"Asset_ID":"B22","Name":"Oman Arab Bank","District_ID":"al Sada al Janubiyya","Gov_ID":"2","Wlyt_ID":" Salalah","Road_ID":null,"Latitude":17.051924849999999,"Longitude":54.150673040000001,"GlobalID":"{AD551388-4BAF-43FA-8F54-C6CBEED8FEA6}"}},{"type":"Feature","id":23,"geometry":{"type":"Point","coordinates":[54.097323930185127,17.013814915706323]},"properties":{"OBJECTID":23,"Asset_ID":"B23","Name":"HSBC","District_ID":"al Zaweya","Gov_ID":"2","Wlyt_ID":" Salalah","Road_ID":null,"Latitude":17.013814920000002,"Longitude":54.097323930000002,"GlobalID":"{2F3D7897-3FEA-44A1-9181-5817615B9F99}"}},{"type":"Feature","id":24,"geometry":{"type":"Point","coordinates":[54.105069999591358,17.020671999633883]},"properties":{"OBJECTID":24,"Asset_ID":"B24","Name":"Bank Nizwa ","District_ID":"al Qoaf","Gov_ID":"2","Wlyt_ID":" Salalah","Road_ID":null,"Latitude":17.020672000000001,"Longitude":54.105069999999998,"GlobalID":"{F40D8EF4-968E-480B-9362-C18C8B4DC6EC}"}},{"type":"Feature","id":25,"geometry":{"type":"Point","coordinates":[54.09208770037452,17.021989900405778]},"properties":{"OBJECTID":25,"Asset_ID":"B25","Name":"Bank Dhofar","District_ID":"Markaz al Madena","Gov_ID":"2","Wlyt_ID":" Salalah","Road_ID":null,"Latitude":17.021989900000001,"Longitude":54.0920877,"GlobalID":"{44FD1E57-107D-4BAA-80DC-BB0FFDC2009D}"}},{"type":"Feature","id":26,"geometry":{"type":"Point","coordinates":[54.085897439840075,17.024386659576717]},"properties":{"OBJECTID":26,"Asset_ID":"B26","Name":"Oman Arab Bank","District_ID":"Salalah Airport","Gov_ID":"2","Wlyt_ID":" Salalah","Road_ID":null,"Latitude":17.024386660000001,"Longitude":54.085897439999997,"GlobalID":"{49FC6F7A-A424-4020-A6AA-0DEC295254BC}"}},{"type":"Feature","id":27,"geometry":{"type":"Point","coordinates":[54.090627999786093,17.021046000123363]},"properties":{"OBJECTID":27,"Asset_ID":"B27","Name":"Oman Housing Bank ","District_ID":"Salalah al Jadida","Gov_ID":"2","Wlyt_ID":" Salalah","Road_ID":null,"Latitude":17.021045999999998,"Longitude":54.090628000000002,"GlobalID":"{7526C2C4-49FD-462A-B61C-F1004D1FC516}"}},{"type":"Feature","id":28,"geometry":{"type":"Point","coordinates":[54.092087000264563,17.021841000389042]},"properties":{"OBJECTID":28,"Asset_ID":"B28","Name":"Bank Dhofar","District_ID":"Markaz al Madena","Gov_ID":"2","Wlyt_ID":" Salalah","Road_ID":null,"Latitude":17.021840999999998,"Longitude":54.092086999999999,"GlobalID":"{FEB037BA-4FA0-48AB-9122-9E65C1C227CF}"}},{"type":"Feature","id":29,"geometry":{"type":"Point","coordinates":[54.102063276001765,17.002467805013545]},"properties":{"OBJECTID":29,"Asset_ID":"B29","Name":"HSBC","District_ID":"al Husn","Gov_ID":"2","Wlyt_ID":" Salalah","Road_ID":null,"Latitude":17.002467809999999,"Longitude":54.102063280000003,"GlobalID":"{85DAEF8E-082F-4101-A6E3-209B08BB0CE5}"}},{"type":"Feature","id":30,"geometry":{"type":"Point","coordinates":[54.087104200088682,17.017814499808551]},"properties":{"OBJECTID":30,"Asset_ID":"B30","Name":"Bank Muscat","District_ID":"Salalah al Jadida","Gov_ID":"2","Wlyt_ID":" Salalah","Road_ID":null,"Latitude":17.0178145,"Longitude":54.087104199999999,"GlobalID":"{49A9E644-824C-4CED-8F17-B270F17B430B}"}},{"type":"Feature","id":31,"geometry":{"type":"Point","coordinates":[54.111943999887259,17.024444000127385]},"properties":{"OBJECTID":31,"Asset_ID":"B31","Name":"HSBC","District_ID":"al Huseela","Gov_ID":"2","Wlyt_ID":" Salalah","Road_ID":null,"Latitude":17.024443999999999,"Longitude":54.111944000000001,"GlobalID":"{1437EA86-F087-419A-8D26-E701D5D7CBAA}"}},{"type":"Feature","id":32,"geometry":{"type":"Point","coordinates":[54.095432000196929,17.016962999563962]},"properties":{"OBJECTID":32,"Asset_ID":"B32","Name":"Al Ahli Bank","District_ID":"Markaz al Madena","Gov_ID":"2","Wlyt_ID":" Salalah","Road_ID":null,"Latitude":17.016963000000001,"Longitude":54.095432000000002,"GlobalID":"{2834C267-02E7-4641-8AF7-F9A21492848D}"}},{"type":"Feature","id":33,"geometry":{"type":"Point","coordinates":[54.061424789897757,17.003588909935026]},"properties":{"OBJECTID":33,"Asset_ID":"B33","Name":"Bank Sohar","District_ID":"Auqad al Janubiyya","Gov_ID":"2","Wlyt_ID":" Salalah","Road_ID":null,"Latitude":17.003588910000001,"Longitude":54.061424789999997,"GlobalID":"{36BEB5CE-1A33-4C92-B487-1AA70A48DB0D}"}},{"type":"Feature","id":34,"geometry":{"type":"Point","coordinates":[54.149722219638441,17.05190556031711]},"properties":{"OBJECTID":34,"Asset_ID":"B34","Name":"National Bank of Oman","District_ID":"al Sada al Janubiyya","Gov_ID":"2","Wlyt_ID":" Salalah","Road_ID":null,"Latitude":17.051905560000002,"Longitude":54.149722220000001,"GlobalID":"{C14E7D98-A1EC-47A4-835E-AD81CC0E999D}"}},{"type":"Feature","id":35,"geometry":{"type":"Point","coordinates":[54.102649999852773,17.002540000434621]},"properties":{"OBJECTID":35,"Asset_ID":"B35","Name":"Bank Muscat","District_ID":"al Husn","Gov_ID":"2","Wlyt_ID":" Salalah","Road_ID":null,"Latitude":17.00254,"Longitude":54.102649999999997,"GlobalID":"{5B595222-F7FD-4F9B-9FDE-BBDCA58E56EB}"}},{"type":"Feature","id":36,"geometry":{"type":"Point","coordinates":[54.050959999603947,17.021800000256594]},"properties":{"OBJECTID":36,"Asset_ID":"B36","Name":"Bank Muscat","District_ID":"New Industrial Area","Gov_ID":"2","Wlyt_ID":" Salalah","Road_ID":null,"Latitude":17.021799999999999,"Longitude":54.050960000000003,"GlobalID":"{29084D79-2F42-4704-A5F8-91BD10ECB167}"}},{"type":"Feature","id":37,"geometry":{"type":"Point","coordinates":[54.092249999843439,17.021269999968979]},"properties":{"OBJECTID":37,"Asset_ID":"B37","Name":"Bank Muscat","District_ID":"Markaz al Madena","Gov_ID":"2","Wlyt_ID":" Salalah","Road_ID":null,"Latitude":17.021270000000001,"Longitude":54.09225,"GlobalID":"{7FB88B7D-F33F-4500-B246-B6617991D2FA}"}},{"type":"Feature","id":38,"geometry":{"type":"Point","coordinates":[54.149444000348439,17.051388999566221]},"properties":{"OBJECTID":38,"Asset_ID":"B38","Name":"HSBC","District_ID":"al Sada al Janubiyya","Gov_ID":"2","Wlyt_ID":" Salalah","Road_ID":null,"Latitude":17.051389,"Longitude":54.149444000000003,"GlobalID":"{28F8A88D-90F9-4298-B141-E7135857AB13}"}},{"type":"Feature","id":39,"geometry":{"type":"Point","coordinates":[54.153354220338827,17.053962649891453]},"properties":{"OBJECTID":39,"Asset_ID":"B39","Name":"Oman Arab Bank","District_ID":"al Sada al Janubiyya","Gov_ID":"2","Wlyt_ID":" Salalah","Road_ID":null,"Latitude":17.053962649999999,"Longitude":54.153354219999997,"GlobalID":"{615F27D9-D226-465C-908A-3447A24A447F}"}},{"type":"Feature","id":40,"geometry":{"type":"Point","coordinates":[54.023564600045233,17.012188409885127]},"properties":{"OBJECTID":40,"Asset_ID":"B40","Name":"Oman Arab Bank","District_ID":"Auqad al Shamaliyya","Gov_ID":"2","Wlyt_ID":" Salalah","Road_ID":null,"Latitude":17.01218841,"Longitude":54.0235646,"GlobalID":"{2E100FBF-CB69-4481-AFE8-53CE3CC40BDC}"}},{"type":"Feature","id":41,"geometry":{"type":"Point","coordinates":[54.083822000074903,17.017066999917098]},"properties":{"OBJECTID":41,"Asset_ID":"B41","Name":"Oman Arab Bank","District_ID":"Salalah al Jadida","Gov_ID":"2","Wlyt_ID":" Salalah","Road_ID":null,"Latitude":17.017067000000001,"Longitude":54.083821999999998,"GlobalID":"{6361CA2D-4430-4646-B465-F02AE12C9462}"}},{"type":"Feature","id":42,"geometry":{"type":"Point","coordinates":[54.104629350330164,17.020566100327418]},"properties":{"OBJECTID":42,"Asset_ID":"B42","Name":"Oman Arab Bank","District_ID":"al Qoaf","Gov_ID":"2","Wlyt_ID":" Salalah","Road_ID":null,"Latitude":17.0205661,"Longitude":54.104629350000003,"GlobalID":"{BDB700EA-10EF-4FA2-9A56-EF7FD0B93D15}"}},{"type":"Feature","id":43,"geometry":{"type":"Point","coordinates":[54.098699999737839,17.01970009967194]},"properties":{"OBJECTID":43,"Asset_ID":"B43","Name":"Al Aizz Islamic Bank","District_ID":"Markaz al Madena","Gov_ID":"2","Wlyt_ID":" Salalah","Road_ID":null,"Latitude":17.019700100000001,"Longitude":54.098700000000001,"GlobalID":"{1ADD93DE-2C4B-4794-97F5-4A69B898C104}"}},{"type":"Feature","id":44,"geometry":{"type":"Point","coordinates":[54.061249999638214,17.01919200002985]},"properties":{"OBJECTID":44,"Asset_ID":"B44","Name":"Oman Developmant Bank","District_ID":"Salalah Airport","Gov_ID":"2","Wlyt_ID":" Salalah","Road_ID":null,"Latitude":17.019192,"Longitude":54.061250000000001,"GlobalID":"{D0DA4F11-3238-478C-A912-48CE97D86292}"}},{"type":"Feature","id":45,"geometry":{"type":"Point","coordinates":[54.100130000139401,17.017700000418046]},"properties":{"OBJECTID":45,"Asset_ID":"B45","Name":"Bank Muscat","District_ID":"Markaz al Madena","Gov_ID":"2","Wlyt_ID":" Salalah","Road_ID":null,"Latitude":17.017700000000001,"Longitude":54.10013,"GlobalID":"{5C6B3D30-76F8-4B60-A70B-4332BA730674}"}},{"type":"Feature","id":46,"geometry":{"type":"Point","coordinates":[54.156620000186287,17.025690000402264]},"properties":{"OBJECTID":46,"Asset_ID":"B46","Name":"Bank Muscat","District_ID":"Dahariz al Shamaliyya","Gov_ID":"2","Wlyt_ID":" Salalah","Road_ID":null,"Latitude":17.025690000000001,"Longitude":54.156619999999997,"GlobalID":"{E396D4FD-D9D1-402E-AAC5-10222DB33957}"}},{"type":"Feature","id":47,"geometry":{"type":"Point","coordinates":[54.039300000064479,17.005360000360412]},"properties":{"OBJECTID":47,"Asset_ID":"B47","Name":"Bank Muscat","District_ID":"Auqad al Shamaliyya","Gov_ID":"2","Wlyt_ID":" Salalah","Road_ID":null,"Latitude":17.00536,"Longitude":54.039299999999997,"GlobalID":"{9BD83BD0-778C-488B-88B4-038909E479F3}"}},{"type":"Feature","id":48,"geometry":{"type":"Point","coordinates":[54.152439999629522,17.053180000029627]},"properties":{"OBJECTID":48,"Asset_ID":"B48","Name":"Bank Muscat","District_ID":"al Sada al Janubiyya","Gov_ID":"2","Wlyt_ID":" Salalah","Road_ID":null,"Latitude":17.053180000000001,"Longitude":54.152439999999999,"GlobalID":"{5D3FD4E7-B09F-4081-9553-F231AB75C2F0}"}},{"type":"Feature","id":49,"geometry":{"type":"Point","coordinates":[54.094126122393327,17.011079086644521]},"properties":{"OBJECTID":49,"Asset_ID":"B49","Name":"Bank Muscat","District_ID":"Salalah al Wousta","Gov_ID":"2","Wlyt_ID":" Salalah","Road_ID":null,"Latitude":17.011079089999999,"Longitude":54.094126119999999,"GlobalID":"{84B52FD2-06CF-425B-9F90-3083B1B7AA55}"}},{"type":"Feature","id":50,"geometry":{"type":"Point","coordinates":[54.099273308317869,17.014072847561522]},"properties":{"OBJECTID":50,"Asset_ID":"B50","Name":"Bank Muscat","District_ID":"al Zaweya","Gov_ID":"2","Wlyt_ID":" Salalah","Road_ID":null,"Latitude":17.014072850000002,"Longitude":54.099273310000001,"GlobalID":"{3119A38E-93EB-4629-B1AE-886402F23026}"}},{"type":"Feature","id":51,"geometry":{"type":"Point","coordinates":[54.102290000161389,17.018090000261388]},"properties":{"OBJECTID":51,"Asset_ID":"B51","Name":"Oman Arab Bank","District_ID":"Markaz al Madena","Gov_ID":"2","Wlyt_ID":" Salalah","Road_ID":null,"Latitude":17.018090000000001,"Longitude":54.102290000000004,"GlobalID":"{EDFE8A00-E734-4F0B-BFF6-8DC7D9A49D35}"}}]}