{"type":"FeatureCollection","features":[{"type":"Feature","id":0,"geometry":{"type":"Point","coordinates":[54.191763114882065,17.105003811122284]},"properties":{"FID":0,"Asset_ID":"BTC1","Name":"ملحمة","District_I":" ","Gov_ID":"Dhofar Governorate","Wlyt_ID":"Salalah","Road_ID":" ","Latitude":17.105003809999999,"Longitude":54.191763109999997,"GlobalID":"{022AA97D-1EE9-4359-A839-88430141B334}"}},{"type":"Feature","id":1,"geometry":{"type":"Point","coordinates":[54.217938888486586,17.112048551502042]},"properties":{"FID":1,"Asset_ID":"BTC2","Name":"ملحمة بن وزح","District_I":" ","Gov_ID":"Dhofar Governorate","Wlyt_ID":"Salalah","Road_ID":" ","Latitude":17.112048550000001,"Longitude":54.217938889999999,"GlobalID":"{E81F45CA-9FFE-4ACD-995C-F09679A70D3D}"}},{"type":"Feature","id":2,"geometry":{"type":"Point","coordinates":[54.147166024018858,17.098484959719524]},"properties":{"FID":2,"Asset_ID":"BTC3","Name":"ملحمة","District_I":" ","Gov_ID":"Dhofar Governorate","Wlyt_ID":"Salalah","Road_ID":" ","Latitude":17.09848496,"Longitude":54.14716602,"GlobalID":"{3682F1C8-95EF-4316-B982-45D3DC0CEF15}"}},{"type":"Feature","id":3,"geometry":{"type":"Point","coordinates":[54.067717177352179,17.067075644154297]},"properties":{"FID":3,"Asset_ID":"BTC4","Name":"مسلخ البلدية\r\n","District_I":" ","Gov_ID":"Dhofar Governorate","Wlyt_ID":"Salalah","Road_ID":" ","Latitude":17.067075639999999,"Longitude":54.067717180000002,"GlobalID":"{26F497F8-51C9-4E41-ADDC-DC35E604752A}"}},{"type":"Feature","id":4,"geometry":{"type":"Point","coordinates":[54.166442789520666,17.131595743731783]},"properties":{"FID":4,"Asset_ID":"BTC5","Name":"ملحمة\r\n","District_I":" ","Gov_ID":"Dhofar Governorate","Wlyt_ID":"Salalah","Road_ID":" ","Latitude":17.131595740000002,"Longitude":54.166442789999998,"GlobalID":"{47B49E67-D664-47DA-9FFA-6CBFB73AC904}"}},{"type":"Feature","id":5,"geometry":{"type":"Point","coordinates":[54.122493828850089,17.092900663881622]},"properties":{"FID":5,"Asset_ID":"BTC6","Name":"مؤسسة خالد الشحري للبيع الدجاج التركي\r\n","District_I":" ","Gov_ID":"Dhofar Governorate","Wlyt_ID":"Salalah","Road_ID":" ","Latitude":17.092900660000002,"Longitude":54.122493830000003,"GlobalID":"{A8BAA321-348A-420E-9C18-2E8E560D76AF}"}},{"type":"Feature","id":6,"geometry":{"type":"Point","coordinates":[54.071661209622008,17.081839163323743]},"properties":{"FID":6,"Asset_ID":"BTC7","Name":"مطعم و ملحمة","District_I":" ","Gov_ID":"Dhofar Governorate","Wlyt_ID":"Salalah","Road_ID":" ","Latitude":17.081839160000001,"Longitude":54.071661210000002,"GlobalID":"{67F6C79A-4C9B-42D6-8A05-1B1FD015F7C0}"}},{"type":"Feature","id":7,"geometry":{"type":"Point","coordinates":[54.073280139392494,17.081843008247134]},"properties":{"FID":7,"Asset_ID":"BTC8","Name":"ملحمة الوديعه\r\n","District_I":" ","Gov_ID":"Dhofar Governorate","Wlyt_ID":"Salalah","Road_ID":" ","Latitude":17.08184301,"Longitude":54.073280140000001,"GlobalID":"{BABBF6E0-06C5-48A0-845E-19EDBCFD7B74}"}},{"type":"Feature","id":8,"geometry":{"type":"Point","coordinates":[54.161608977305384,17.020622259821003]},"properties":{"FID":8,"Asset_ID":"BTC9","Name":"حاشي ستيشن","District_I":"Dahariz al Shamaliyya","Gov_ID":"Dhofar Governorate","Wlyt_ID":"Salalah","Road_ID":" ","Latitude":17.02062226,"Longitude":54.161608979999997,"GlobalID":"{2C2E08A7-3289-4ACC-8FAB-9CC5F9AD6936}"}},{"type":"Feature","id":9,"geometry":{"type":"Point","coordinates":[54.163768954148701,17.021050053139756]},"properties":{"FID":9,"Asset_ID":"BTC10","Name":"بيع اللحوم و منتجات اللحوم","District_I":"Dahariz al Shamaliyya","Gov_ID":"Dhofar Governorate","Wlyt_ID":"Salalah","Road_ID":" ","Latitude":17.021050049999999,"Longitude":54.163768949999998,"GlobalID":"{97A321E0-7D17-40FD-A0C4-3D179A9949BA}"}},{"type":"Feature","id":10,"geometry":{"type":"Point","coordinates":[54.082930472928972,17.017537701714257]},"properties":{"FID":10,"Asset_ID":"BTC11","Name":"ملحمة","District_I":"Salalah al Jadida","Gov_ID":"Dhofar Governorate","Wlyt_ID":"Salalah","Road_ID":" ","Latitude":17.017537699999998,"Longitude":54.082930470000001,"GlobalID":"{6E079C99-1A84-4236-829E-BAD8C3098374}"}},{"type":"Feature","id":11,"geometry":{"type":"Point","coordinates":[54.082033242983144,17.017441000101616]},"properties":{"FID":11,"Asset_ID":"BTC12","Name":"مشاوي وملحمة\r\n","District_I":"Salalah al Jadida","Gov_ID":"Dhofar Governorate","Wlyt_ID":"Salalah","Road_ID":" ","Latitude":17.017441000000002,"Longitude":54.082033240000001,"GlobalID":"{7A959D24-A5F0-4D62-8DC7-DCA4A7F37DC7}"}},{"type":"Feature","id":12,"geometry":{"type":"Point","coordinates":[54.080364181274383,17.016757967576524]},"properties":{"FID":12,"Asset_ID":"BTC13","Name":"ملحمة و مشاوي","District_I":"Salalah al Jadida","Gov_ID":"Dhofar Governorate","Wlyt_ID":"Salalah","Road_ID":" ","Latitude":17.01675797,"Longitude":54.080364179999997,"GlobalID":"{2DC4C975-DC8F-44DE-891E-130C67986C21}"}},{"type":"Feature","id":13,"geometry":{"type":"Point","coordinates":[54.084343245918909,17.020577176192567]},"properties":{"FID":13,"Asset_ID":"BTC14","Name":"ملحمة","District_I":"Salalah al Jadida","Gov_ID":"Dhofar Governorate","Wlyt_ID":"Salalah","Road_ID":" ","Latitude":17.02057718,"Longitude":54.084343250000003,"GlobalID":"{41980C70-866E-4E93-90F5-89A346558013}"}},{"type":"Feature","id":14,"geometry":{"type":"Point","coordinates":[54.079953087145128,17.020077905356512]},"properties":{"FID":14,"Asset_ID":"BTC15","Name":"ملحمة","District_I":"Salalah al Jadida","Gov_ID":"Dhofar Governorate","Wlyt_ID":"Salalah","Road_ID":" ","Latitude":17.020077910000001,"Longitude":54.079953089999997,"GlobalID":"{CCF8B515-B688-4B71-B057-E8CF52F6D32A}"}},{"type":"Feature","id":15,"geometry":{"type":"Point","coordinates":[54.080855485399873,17.014866382031098]},"properties":{"FID":15,"Asset_ID":"BTC16","Name":"تجارة اللحوم و منتجات اللحوم و الدواجن المذبوحة","District_I":"Salalah al Jadida","Gov_ID":"Dhofar Governorate","Wlyt_ID":"Salalah","Road_ID":" ","Latitude":17.014866380000001,"Longitude":54.080855489999998,"GlobalID":"{AC13F56C-0E90-4B65-A289-9C405D1FD77A}"}},{"type":"Feature","id":16,"geometry":{"type":"Point","coordinates":[54.08116220706026,17.013637079075977]},"properties":{"FID":16,"Asset_ID":"BTC17","Name":"ملحمة و مشاوي","District_I":"Salalah al Jadida","Gov_ID":"Dhofar Governorate","Wlyt_ID":"Salalah","Road_ID":" ","Latitude":17.013637079999999,"Longitude":54.081162210000002,"GlobalID":"{66EE368D-8347-44DE-95C1-DAE615C313AC}"}},{"type":"Feature","id":17,"geometry":{"type":"Point","coordinates":[54.084169852377507,17.012493429500601]},"properties":{"FID":17,"Asset_ID":"BTC18","Name":"بيع اللحوم و منتجات اللحوم","District_I":"Salalah al Gharbiyya","Gov_ID":"Dhofar Governorate","Wlyt_ID":"Salalah","Road_ID":" ","Latitude":17.012493429999999,"Longitude":54.084169850000002,"GlobalID":"{6DDF8E7D-C9DC-45B2-9187-58AC8319279F}"}},{"type":"Feature","id":18,"geometry":{"type":"Point","coordinates":[54.160716034308201,17.025639919750841]},"properties":{"FID":18,"Asset_ID":"BTC19","Name":"ملحمة بوشر","District_I":"Dahariz al Shamaliyya","Gov_ID":"Dhofar Governorate","Wlyt_ID":"Salalah","Road_ID":" ","Latitude":17.02563992,"Longitude":54.160716030000003,"GlobalID":"{563854DB-7630-4B1A-ADB7-BC1DEF4832A6}"}},{"type":"Feature","id":19,"geometry":{"type":"Point","coordinates":[54.158581716107541,17.018998704454965]},"properties":{"FID":19,"Asset_ID":"BTC20","Name":"ذبح وبيع وتهيئة الدواجن والارانب والطيور\r\n","District_I":"Dahariz al Shamaliyya","Gov_ID":"Dhofar Governorate","Wlyt_ID":"Salalah","Road_ID":" ","Latitude":17.018998700000001,"Longitude":54.158581720000001,"GlobalID":"{9708B8A5-7482-40C5-A66B-AA89D4DF72B9}"}}]}