{"type":"FeatureCollection","features":[{"type":"Feature","id":0,"geometry":{"type":"Point","coordinates":[54.191791439008924,17.106390700182168]},"properties":{"FID":0,"Asset_ID":"EvH1","Name":"قاعه الأحقاف\r\n","District_I":" ","Gov_ID":"2","Wlyt_ID":"Salalah","Road_ID":" ","Latitude":17.106390699999999,"Longitude":54.191791440000003,"GlobalID":"{F9852915-D3EC-4300-89A9-1D5289921039}"}},{"type":"Feature","id":1,"geometry":{"type":"Point","coordinates":[54.207039925454872,17.110105950382337]},"properties":{"FID":1,"Asset_ID":"EvH2","Name":"قاعة دار السلطان للمناسبات\r\n","District_I":" ","Gov_ID":"2","Wlyt_ID":"Salalah","Road_ID":" ","Latitude":17.110105950000001,"Longitude":54.207039930000001,"GlobalID":"{E870F71B-A9A5-4674-95E2-9692266C6949}"}},{"type":"Feature","id":2,"geometry":{"type":"Point","coordinates":[54.154946875621881,17.038048021848684]},"properties":{"FID":2,"Asset_ID":"EvH3","Name":"Royal Ballroom","District_I":"al Sada al Janubiyya","Gov_ID":"2","Wlyt_ID":"Salalah","Road_ID":" ","Latitude":17.038048020000002,"Longitude":54.154946879999997,"GlobalID":"{BDDF8F05-5368-4BBF-8FB0-F5A5628CF1A2}"}},{"type":"Feature","id":3,"geometry":{"type":"Point","coordinates":[54.172044188638715,17.027587077271594]},"properties":{"FID":3,"Asset_ID":"EvH4","Name":"Regency Halls","District_I":"Dahariz al Shamaliyya","Gov_ID":"2","Wlyt_ID":"Salalah","Road_ID":" ","Latitude":17.02758708,"Longitude":54.172044190000001,"GlobalID":"{8E718ADA-C2BC-4B56-B798-CC28144ACDBC}"}},{"type":"Feature","id":4,"geometry":{"type":"Point","coordinates":[54.090948965293855,17.09260876386999]},"properties":{"FID":4,"Asset_ID":"EvH6","Name":"قاعة النجر للمناسبات","District_I":" ","Gov_ID":"2","Wlyt_ID":"Salalah","Road_ID":" ","Latitude":17.092608760000001,"Longitude":54.090948969999999,"GlobalID":"{87E04303-7441-4D49-8B05-CE91E9017203}"}},{"type":"Feature","id":5,"geometry":{"type":"Point","coordinates":[54.06914139776439,17.010075761384385]},"properties":{"FID":5,"Asset_ID":"EvH7","Name":"مجلس الوادي","District_I":"al Wadi","Gov_ID":"2","Wlyt_ID":"Salalah","Road_ID":" ","Latitude":17.010075759999999,"Longitude":54.069141399999999,"GlobalID":"{DF520DE4-F569-40BF-9B3B-4893F28020FA}"}}]}