{"type":"FeatureCollection","features":[{"type":"Feature","id":0,"geometry":{"type":"Point","coordinates":[54.152459174664109,17.101055915900879]},"properties":{"FID":0,"Asset_ID":"HTE1","Name":"Atana Stay Salalah","District_I":" ","Gov_ID":"Dhofar Governorate","Wlyt_ID":" Salalah","Road_ID":" ","Latitude":17.10105592,"Longitude":54.15245917,"GlobalID":"{A3A35977-9A2E-4154-924D-C2D173E56573}","Field":0,"Hotel_Clas":" Mid-Range Hotel","Hotal_Star":4}},{"type":"Feature","id":1,"geometry":{"type":"Point","coordinates":[54.146290694027932,17.098488212833523]},"properties":{"FID":1,"Asset_ID":"HTE2","Name":"بناية الكوثر للغرف و الشقق الفندقية","District_I":" ","Gov_ID":"Dhofar Governorate","Wlyt_ID":" Salalah","Road_ID":" ","Latitude":17.098488209999999,"Longitude":54.146290690000001,"GlobalID":"{2F4EF72D-66D0-48C9-AD3F-F1284EECDCF5}","Field":0,"Hotel_Clas":"Furnished Apt","Hotal_Star":3}},{"type":"Feature","id":2,"geometry":{"type":"Point","coordinates":[54.071424384696826,17.085972348554947]},"properties":{"FID":2,"Asset_ID":"HTE3","Name":"Salalah Dreamland Resort","District_I":" ","Gov_ID":"Dhofar Governorate","Wlyt_ID":" Salalah","Road_ID":" ","Latitude":17.085972349999999,"Longitude":54.071424380000003,"GlobalID":"{21B58101-10E4-49EF-B4EC-81D5771BA951}","Field":0,"Hotel_Clas":"Resorts","Hotal_Star":3}},{"type":"Feature","id":3,"geometry":{"type":"Point","coordinates":[54.150218688431337,17.038236367501369]},"properties":{"FID":3,"Asset_ID":"HTE4","Name":"فلل فندق القصر","District_I":"al Sada al Janubiyya","Gov_ID":"Dhofar Governorate","Wlyt_ID":" Salalah","Road_ID":" ","Latitude":17.03823637,"Longitude":54.150218690000003,"GlobalID":"{36A32A25-D7BF-4E69-BB5C-36C2266268BF}","Field":0,"Hotel_Clas":"Furnished Apt","Hotal_Star":3}},{"type":"Feature","id":4,"geometry":{"type":"Point","coordinates":[54.150336337088753,17.038461551712231]},"properties":{"FID":4,"Asset_ID":"HTE5","Name":"فندق جراند طيبة","District_I":"al Sada al Janubiyya","Gov_ID":"Dhofar Governorate","Wlyt_ID":" Salalah","Road_ID":" ","Latitude":17.038461550000001,"Longitude":54.150336340000003,"GlobalID":"{090530C7-B951-44C9-AE68-14C8ED667D8B}","Field":0,"Hotel_Clas":" Mid-Range Hotel","Hotal_Star":3}},{"type":"Feature","id":5,"geometry":{"type":"Point","coordinates":[54.157678555490797,17.008907683040363]},"properties":{"FID":5,"Asset_ID":"HTE6","Name":"Salalah Beach Resort","District_I":"Dahariz al Janubiyya","Gov_ID":"Dhofar Governorate","Wlyt_ID":" Salalah","Road_ID":" ","Latitude":17.00890768,"Longitude":54.157678560000001,"GlobalID":"{AB9ACC38-0647-4C76-8ACE-F6D96B6846CA}","Field":0,"Hotel_Clas":"Resorts","Hotal_Star":3}},{"type":"Feature","id":6,"geometry":{"type":"Point","coordinates":[54.160799679111179,17.009466652799627]},"properties":{"FID":6,"Asset_ID":"HTE7","Name":"Dar Alnoori Boutique Hotel","District_I":"Dahariz al Janubiyya","Gov_ID":"Dhofar Governorate","Wlyt_ID":" Salalah","Road_ID":" ","Latitude":17.00946665,"Longitude":54.160799679999997,"GlobalID":"{2E9873D1-A910-4F16-BBA7-DF1542EE9485}","Field":0,"Hotel_Clas":"Mid-Range Hotel","Hotal_Star":4}},{"type":"Feature","id":7,"geometry":{"type":"Point","coordinates":[54.161270143824694,17.009530647471017]},"properties":{"FID":7,"Asset_ID":"HTE8","Name":"بناية شاطئ الدهاريز","District_I":"Dahariz al Janubiyya","Gov_ID":"Dhofar Governorate","Wlyt_ID":" Salalah","Road_ID":" ","Latitude":17.009530649999999,"Longitude":54.161270139999999,"GlobalID":"{89D3F3AF-33F4-4942-8915-21092469B2DB}","Field":0,"Hotel_Clas":"Mid-Range Hotel","Hotal_Star":3}},{"type":"Feature","id":8,"geometry":{"type":"Point","coordinates":[54.162773526088898,17.009527345047093]},"properties":{"FID":8,"Asset_ID":"HTE9","Name":"Al Mansour Building","District_I":"Dahariz al Janubiyya","Gov_ID":"Dhofar Governorate","Wlyt_ID":" Salalah","Road_ID":" ","Latitude":17.009527349999999,"Longitude":54.162773530000003,"GlobalID":"{98D7B784-62B7-4556-9C5A-A791E8EA64A7}","Field":0,"Hotel_Clas":"Furnished Apt","Hotal_Star":3}},{"type":"Feature","id":9,"geometry":{"type":"Point","coordinates":[54.091973748605675,17.014883488798212]},"properties":{"FID":9,"Asset_ID":"HTE10","Name":"Muscat International Hotel plaza Salalah","District_I":"Salalah al Wousta","Gov_ID":"Dhofar Governorate","Wlyt_ID":" Salalah","Road_ID":" ","Latitude":17.014883489999999,"Longitude":54.091973750000001,"GlobalID":"{AB43ED77-5DEA-4533-A174-AE64E0CB339D}","Field":0,"Hotel_Clas":"Mid-Rnge Hotel","Hotal_Star":4}},{"type":"Feature","id":10,"geometry":{"type":"Point","coordinates":[54.087915119251363,17.017340927097433]},"properties":{"FID":10,"Asset_ID":"HTE11","Name":"STAR FOUR SEASON","District_I":"Salalah al Jadida","Gov_ID":"Dhofar Governorate","Wlyt_ID":" Salalah","Road_ID":" ","Latitude":17.01734093,"Longitude":54.087915119999998,"GlobalID":"{A3B73EBE-70F6-4FEF-AC1A-584F5E716CA0}","Field":0,"Hotel_Clas":"Furnished Apt","Hotal_Star":3}},{"type":"Feature","id":11,"geometry":{"type":"Point","coordinates":[54.086582659733132,17.018127556879879]},"properties":{"FID":11,"Asset_ID":"HTE12","Name":"Star Emirates Suites","District_I":"Salalah al Jadida","Gov_ID":"Dhofar Governorate","Wlyt_ID":" Salalah","Road_ID":" ","Latitude":17.01812756,"Longitude":54.086582659999998,"GlobalID":"{90CCAD93-3D14-4730-AD6E-F5592135DA27}","Field":0,"Hotel_Clas":"Mid-Rnge Hotel","Hotal_Star":3}},{"type":"Feature","id":12,"geometry":{"type":"Point","coordinates":[54.086865845820554,17.014070108677817]},"properties":{"FID":12,"Asset_ID":"HTE13","Name":"Al Safa Suits","District_I":"Salalah al Jadida","Gov_ID":"Dhofar Governorate","Wlyt_ID":" Salalah","Road_ID":" ","Latitude":17.014070109999999,"Longitude":54.086865850000002,"GlobalID":"{03D0C8AC-8A3C-463E-BD50-E949B97075E1}","Field":0,"Hotel_Clas":"Mid-Rnge Hotel","Hotal_Star":3}},{"type":"Feature","id":13,"geometry":{"type":"Point","coordinates":[54.085584360784601,17.012877038696143]},"properties":{"FID":13,"Asset_ID":"HTE14","Name":"Layali Rent Apartment","District_I":"Salalah al Gharbiyya","Gov_ID":"Dhofar Governorate","Wlyt_ID":" Salalah","Road_ID":" ","Latitude":17.012877039999999,"Longitude":54.085584359999999,"GlobalID":"{C66A85F2-C06A-4DFC-B270-DCF018A081FC}","Field":0,"Hotel_Clas":"Furnished Apt","Hotal_Star":3}},{"type":"Feature","id":14,"geometry":{"type":"Point","coordinates":[54.084566180885929,17.013199582279498]},"properties":{"FID":14,"Asset_ID":"HTE15","Name":"AL NILE (3) HOTEL, SALALAH","District_I":"Salalah al Jadida","Gov_ID":"Dhofar Governorate","Wlyt_ID":" Salalah","Road_ID":" ","Latitude":17.013199579999998,"Longitude":54.084566180000003,"GlobalID":"{39DA5665-5DFD-4F50-BD30-71E28D96A236}","Field":0,"Hotel_Clas":"Furnished Apt","Hotal_Star":3}},{"type":"Feature","id":15,"geometry":{"type":"Point","coordinates":[54.082122316212221,17.011722719231308]},"properties":{"FID":15,"Asset_ID":"HTE16","Name":"Grand flora hotel salalah","District_I":"Salalah al Gharbiyya","Gov_ID":"Dhofar Governorate","Wlyt_ID":" Salalah","Road_ID":" ","Latitude":17.011722720000002,"Longitude":54.082122320000003,"GlobalID":"{2CDA69FF-9C15-450B-A0F9-26DEA17AEFC6}","Field":0,"Hotel_Clas":"Mid-Rnge Hotel","Hotal_Star":3}},{"type":"Feature","id":16,"geometry":{"type":"Point","coordinates":[54.081529770046991,17.013657510318541]},"properties":{"FID":16,"Asset_ID":"HTE17","Name":"Ajyad Furnished Appartments & Room","District_I":"Salalah al Jadida","Gov_ID":"Dhofar Governorate","Wlyt_ID":" Salalah","Road_ID":" ","Latitude":17.013657510000002,"Longitude":54.081529770000003,"GlobalID":"{698B2E56-D3D7-49E1-A65A-987DA1C8EE4D}","Field":0,"Hotel_Clas":"Furnished Apt","Hotal_Star":4}},{"type":"Feature","id":17,"geometry":{"type":"Point","coordinates":[54.081060922160702,17.015492721824391]},"properties":{"FID":17,"Asset_ID":"HTE18","Name":"Mazaya Salalah Hotel","District_I":"Salalah al Jadida","Gov_ID":"Dhofar Governorate","Wlyt_ID":" Salalah","Road_ID":" ","Latitude":17.015492720000001,"Longitude":54.081060919999999,"GlobalID":"{A15DFC11-CF39-44B8-B175-AC0AE17366A1}","Field":0,"Hotel_Clas":"Mid-Rnge Hotel","Hotal_Star":3}},{"type":"Feature","id":18,"geometry":{"type":"Point","coordinates":[54.081071858998165,17.015164890280385]},"properties":{"FID":18,"Asset_ID":"HTE19","Name":"BAITH AL-GUBAIRA","District_I":"Salalah al Jadida","Gov_ID":"Dhofar Governorate","Wlyt_ID":" Salalah","Road_ID":" ","Latitude":17.015164890000001,"Longitude":54.081071860000002,"GlobalID":"{E08E4582-F274-47BB-A9E5-F8BB39BBCD0E}","Field":0,"Hotel_Clas":"Mid-Rnge Hotel","Hotal_Star":4}},{"type":"Feature","id":19,"geometry":{"type":"Point","coordinates":[54.077997319223854,17.015013747521419]},"properties":{"FID":19,"Asset_ID":"HTE20","Name":"بناية الخير","District_I":"Salalah al Jadida","Gov_ID":"Dhofar Governorate","Wlyt_ID":" Salalah","Road_ID":" ","Latitude":17.015013750000001,"Longitude":54.077997320000001,"GlobalID":"{2A6CE767-A576-43E1-B761-25BA3F229686}","Field":0,"Hotel_Clas":"Mid-Rnge Hotel","Hotal_Star":3}},{"type":"Feature","id":20,"geometry":{"type":"Point","coordinates":[54.071221796168778,17.014800133038204]},"properties":{"FID":20,"Asset_ID":"HTE21","Name":"Park complex","District_I":"al Wadi","Gov_ID":"Dhofar Governorate","Wlyt_ID":" Salalah","Road_ID":" ","Latitude":17.014800130000001,"Longitude":54.071221799999996,"GlobalID":"{C6BDDB72-DBF9-4644-94D5-02C1D803A0F6}","Field":0,"Hotel_Clas":"Mid-Rnge Hotel","Hotal_Star":4}},{"type":"Feature","id":21,"geometry":{"type":"Point","coordinates":[54.067473510836095,17.014698248559913]},"properties":{"FID":21,"Asset_ID":"HTE22","Name":"العديني1 للشقق المفروشه","District_I":"al Wadi","Gov_ID":"Dhofar Governorate","Wlyt_ID":" Salalah","Road_ID":" ","Latitude":17.014698249999999,"Longitude":54.067473509999999,"GlobalID":"{C5E3585E-D3DC-44D8-96B2-B4488413918F}","Field":0,"Hotel_Clas":"Mid-Rnge Hotel","Hotal_Star":4}},{"type":"Feature","id":22,"geometry":{"type":"Point","coordinates":[54.067538866679868,17.011160335752308]},"properties":{"FID":22,"Asset_ID":"HTE23","Name":"Ajwan Hotels Apartments","District_I":"al Wadi","Gov_ID":"Dhofar Governorate","Wlyt_ID":" Salalah","Road_ID":" ","Latitude":17.01116034,"Longitude":54.06753887,"GlobalID":"{37175C52-858F-442C-AE1E-7E78EBAC153B}","Field":0,"Hotel_Clas":"Furnished Apt","Hotal_Star":3}},{"type":"Feature","id":23,"geometry":{"type":"Point","coordinates":[54.059846043729017,17.012292924725269]},"properties":{"FID":23,"Asset_ID":"HTE24","Name":"شقق ايجار ( ليالي الخريف)","District_I":"al Wadi","Gov_ID":"Dhofar Governorate","Wlyt_ID":" Salalah","Road_ID":" ","Latitude":17.01229292,"Longitude":54.059846039999996,"GlobalID":"{12BBCBE0-3E47-4462-82C8-698131620671}","Field":0,"Hotel_Clas":"Furnished Apt","Hotal_Star":3}},{"type":"Feature","id":24,"geometry":{"type":"Point","coordinates":[54.058778503580427,17.012636437514782]},"properties":{"FID":24,"Asset_ID":"HTE25","Name":"RED- Razat Alard 2","District_I":"al Wadi","Gov_ID":"Dhofar Governorate","Wlyt_ID":" Salalah","Road_ID":" ","Latitude":17.012636440000001,"Longitude":54.058778500000003,"GlobalID":"{946943D4-FC76-4E42-890D-1B90E6D6512D}","Field":0,"Hotel_Clas":"Mid-Rnge Hotel","Hotal_Star":4}},{"type":"Feature","id":25,"geometry":{"type":"Point","coordinates":[54.060459280582748,17.01703325845223]},"properties":{"FID":25,"Asset_ID":"HTE26","Name":"Star House Suites","District_I":"al Wadi","Gov_ID":"Dhofar Governorate","Wlyt_ID":" Salalah","Road_ID":" ","Latitude":17.017033260000002,"Longitude":54.060459280000003,"GlobalID":"{AEF4B7BE-B548-4A03-87D7-68EF3E6589F8}","Field":0,"Hotel_Clas":"Mid-Rnge Hotel","Hotal_Star":3}},{"type":"Feature","id":26,"geometry":{"type":"Point","coordinates":[54.060204611152159,17.016898664842579]},"properties":{"FID":26,"Asset_ID":"HTE27","Name":"Andalus Apartments","District_I":"al Wadi","Gov_ID":"Dhofar Governorate","Wlyt_ID":" Salalah","Road_ID":" ","Latitude":17.016898659999999,"Longitude":54.06020461,"GlobalID":"{9BFEA92F-6D0F-4357-9046-7994B224DBBC}","Field":0,"Hotel_Clas":"Furnished Apt","Hotal_Star":3}},{"type":"Feature","id":27,"geometry":{"type":"Point","coordinates":[54.065158675020818,17.019287945183237]},"properties":{"FID":27,"Asset_ID":"HTE28","Name":"Jawharet Al Kheir Furnished Apartments","District_I":"al Wadi","Gov_ID":"Dhofar Governorate","Wlyt_ID":" Salalah","Road_ID":" ","Latitude":17.019287949999999,"Longitude":54.065158680000003,"GlobalID":"{E4DE9A9F-896B-499B-8C09-5B02A816ECFC}","Field":0,"Hotel_Clas":"Furnished Apt","Hotal_Star":4}},{"type":"Feature","id":28,"geometry":{"type":"Point","coordinates":[54.064960466550509,17.015767351038633]},"properties":{"FID":28,"Asset_ID":"HTE29","Name":"بن حريز للشقق المفروشة","District_I":"al Wadi","Gov_ID":"Dhofar Governorate","Wlyt_ID":" Salalah","Road_ID":" ","Latitude":17.015767350000001,"Longitude":54.064960470000003,"GlobalID":"{F33B5DC0-88C9-4D23-A1B4-283C857406BA}","Field":0,"Hotel_Clas":"Furnished Apt","Hotal_Star":3}},{"type":"Feature","id":29,"geometry":{"type":"Point","coordinates":[54.066591756441206,17.016052013400831]},"properties":{"FID":29,"Asset_ID":"HTE30","Name":"Shibli Hotel Apartments luxury","District_I":"al Wadi","Gov_ID":"Dhofar Governorate","Wlyt_ID":" Salalah","Road_ID":" ","Latitude":17.016052009999999,"Longitude":54.066591760000001,"GlobalID":"{E4340898-C353-4A1D-84B2-437C465F6320}","Field":0,"Hotel_Clas":"Furnished Apt","Hotal_Star":3}},{"type":"Feature","id":30,"geometry":{"type":"Point","coordinates":[54.067472212505223,17.021142490920809]},"properties":{"FID":30,"Asset_ID":"HTE31","Name":"Salalah International Hotel\r\n","District_I":"al Wadi","Gov_ID":"Dhofar Governorate","Wlyt_ID":" Salalah","Road_ID":" ","Latitude":17.021142489999999,"Longitude":54.067472209999998,"GlobalID":"{135BB64F-2F28-418F-A15C-985BABADF387}","Field":0,"Hotel_Clas":"Mid-Rnge Hotel","Hotal_Star":4}},{"type":"Feature","id":31,"geometry":{"type":"Point","coordinates":[54.067263159542364,17.020896653822579]},"properties":{"FID":31,"Asset_ID":"HTE32","Name":"al saleh building furnished apartments","District_I":"al Wadi","Gov_ID":"Dhofar Governorate","Wlyt_ID":" Salalah","Road_ID":" ","Latitude":17.020896650000001,"Longitude":54.067263160000003,"GlobalID":"{C33F7DDC-51BF-460E-91D3-5BA8D60DA717}","Field":0,"Hotel_Clas":"Furnished Apt","Hotal_Star":3}},{"type":"Feature","id":32,"geometry":{"type":"Point","coordinates":[54.070212947731292,17.021663785326805]},"properties":{"FID":32,"Asset_ID":"HTE33","Name":"Bin Hariz Apartment","District_I":"al Wadi","Gov_ID":"Dhofar Governorate","Wlyt_ID":" Salalah","Road_ID":" ","Latitude":17.021663790000002,"Longitude":54.070212949999998,"GlobalID":"{EE0747B3-1858-4B18-B687-9192BD5D19A6}","Field":0,"Hotel_Clas":"Furnished Apt","Hotal_Star":4}},{"type":"Feature","id":33,"geometry":{"type":"Point","coordinates":[54.083132742226006,17.021363953237525]},"properties":{"FID":33,"Asset_ID":"HTE34","Name":"Golden Season Furnished Apartments 4","District_I":"Salalah al Jadida","Gov_ID":"Dhofar Governorate","Wlyt_ID":" Salalah","Road_ID":" ","Latitude":17.021363950000001,"Longitude":54.083132740000003,"GlobalID":"{71EB1C7C-5824-43C7-B6BF-E367E840C781}","Field":0,"Hotel_Clas":"Mid-Rnge Hotel","Hotal_Star":3}},{"type":"Feature","id":34,"geometry":{"type":"Point","coordinates":[54.082207519313414,17.017976831313902]},"properties":{"FID":34,"Asset_ID":"HTE35","Name":"مزايا للشقق الفندقيه","District_I":"Salalah al Jadida","Gov_ID":"Dhofar Governorate","Wlyt_ID":" Salalah","Road_ID":" ","Latitude":17.017976829999999,"Longitude":54.082207519999997,"GlobalID":"{04934A39-E08C-4D9B-ADEA-26804681A817}","Field":0,"Hotel_Clas":"Furnished Apt","Hotal_Star":3}},{"type":"Feature","id":35,"geometry":{"type":"Point","coordinates":[54.082894437696773,17.017623860448772]},"properties":{"FID":35,"Asset_ID":"HTE36","Name":"Al Dhafra Furnished Apartments","District_I":"Salalah al Jadida","Gov_ID":"Dhofar Governorate","Wlyt_ID":" Salalah","Road_ID":" ","Latitude":17.01762386,"Longitude":54.082894439999997,"GlobalID":"{3BF929EF-8248-437A-9C5E-CB9C75F7725B}","Field":0,"Hotel_Clas":"Furnished Apt","Hotal_Star":4}},{"type":"Feature","id":36,"geometry":{"type":"Point","coordinates":[54.085625225957315,17.017442723513092]},"properties":{"FID":36,"Asset_ID":"HTE38","Name":"Hotel alahlam","District_I":"Salalah al Jadida","Gov_ID":"Dhofar Governorate","Wlyt_ID":" Salalah","Road_ID":" ","Latitude":17.017442719999998,"Longitude":54.085625229999998,"GlobalID":"{5B1A744A-CE1A-461B-9D07-BFBAA73D93FF}","Field":0,"Hotel_Clas":"Mid-Rnge Hotel","Hotal_Star":0}},{"type":"Feature","id":37,"geometry":{"type":"Point","coordinates":[54.07996498942137,17.017760580573995]},"properties":{"FID":37,"Asset_ID":"HTE39","Name":"green point 4","District_I":"Salalah al Jadida","Gov_ID":"Dhofar Governorate","Wlyt_ID":" Salalah","Road_ID":" ","Latitude":17.017760580000001,"Longitude":54.079964990000001,"GlobalID":"{EDE390A7-01E6-48CA-A5B9-5CC50FEDA8C9}","Field":0,"Hotel_Clas":"Mid-Rnge Hotel","Hotal_Star":4}},{"type":"Feature","id":38,"geometry":{"type":"Point","coordinates":[54.079447628191538,17.01977350956026]},"properties":{"FID":38,"Asset_ID":"HTE40","Name":"Beit Almurooj Hotel Apartment","District_I":"Salalah al Jadida","Gov_ID":"Dhofar Governorate","Wlyt_ID":" Salalah","Road_ID":" ","Latitude":17.01977351,"Longitude":54.079447629999997,"GlobalID":"{C524FABB-EB06-496D-A322-6FA9A8E10F88}","Field":0,"Hotel_Clas":"Mid-Rnge Hotel","Hotal_Star":3}},{"type":"Feature","id":39,"geometry":{"type":"Point","coordinates":[54.080190138869227,17.020765322400692]},"properties":{"FID":39,"Asset_ID":"HTE41","Name":"الارشاد للشقق المفروشة","District_I":"Salalah al Jadida","Gov_ID":"Dhofar Governorate","Wlyt_ID":" Salalah","Road_ID":" ","Latitude":17.020765319999999,"Longitude":54.080190139999999,"GlobalID":"{EC5B24C8-8326-4B06-B9BD-670525F9767E}","Field":0,"Hotel_Clas":"Furnished Apt","Hotal_Star":5}},{"type":"Feature","id":40,"geometry":{"type":"Point","coordinates":[54.078965662427279,17.017582597803628]},"properties":{"FID":40,"Asset_ID":"HTE42","Name":"RELAX FURNISHED APARTMENT","District_I":"Salalah al Jadida","Gov_ID":"Dhofar Governorate","Wlyt_ID":" Salalah","Road_ID":" ","Latitude":17.017582600000001,"Longitude":54.078965660000001,"GlobalID":"{8AEAD13B-14DE-4EAB-B6C8-1539E5D27BAD}","Field":0,"Hotel_Clas":"Furnished Apt","Hotal_Star":3}},{"type":"Feature","id":41,"geometry":{"type":"Point","coordinates":[54.079676308495046,17.018283815092328]},"properties":{"FID":41,"Asset_ID":"HTE43","Name":"Slalha Oman","District_I":"Salalah al Jadida","Gov_ID":"Dhofar Governorate","Wlyt_ID":" Salalah","Road_ID":" ","Latitude":17.018283820000001,"Longitude":54.079676310000004,"GlobalID":"{5E893DC9-7B3A-40F1-A7D6-ECF5977D2FED}","Field":0,"Hotel_Clas":"Mid-Rnge Hotel","Hotal_Star":0}},{"type":"Feature","id":42,"geometry":{"type":"Point","coordinates":[54.078865401339911,17.018364370235432]},"properties":{"FID":42,"Asset_ID":"HTE44","Name":"SAROOH HOTEL ROMES","District_I":"Salalah al Jadida","Gov_ID":"Dhofar Governorate","Wlyt_ID":" Salalah","Road_ID":" ","Latitude":17.01836437,"Longitude":54.078865399999998,"GlobalID":"{2CD43423-64D3-40B4-B34B-E19D55EA617C}","Field":0,"Hotel_Clas":"Furnished Apt","Hotal_Star":4}},{"type":"Feature","id":43,"geometry":{"type":"Point","coordinates":[54.150882354166754,17.099784276182135]},"properties":{"FID":43,"Asset_ID":"HTE45","Name":"استراحة الشمس للشقق الفندقية","District_I":" ","Gov_ID":"Dhofar Governorate","Wlyt_ID":" Salalah","Road_ID":" ","Latitude":17.099784280000002,"Longitude":54.150882350000003,"GlobalID":"{1178AB1C-BD7B-4443-A56C-DF75408C1649}","Field":0,"Hotel_Clas":"Furnished Apt","Hotal_Star":4}},{"type":"Feature","id":44,"geometry":{"type":"Point","coordinates":[54.072584103998558,17.08660561904286]},"properties":{"FID":44,"Asset_ID":"HTE46","Name":"فندق بيئي","District_I":" ","Gov_ID":"Dhofar Governorate","Wlyt_ID":" Salalah","Road_ID":" ","Latitude":17.08660562,"Longitude":54.0725841,"GlobalID":"{61761AA0-DD84-430E-8939-CF67D468BD73}","Field":0,"Hotel_Clas":"Mid-Rnge Hotel","Hotal_Star":0}},{"type":"Feature","id":45,"geometry":{"type":"Point","coordinates":[54.170380036681131,17.036456464084885]},"properties":{"FID":45,"Asset_ID":"HTE47","Name":"Millennium Resort Salalah","District_I":"al Sada al Janubiyya","Gov_ID":"Dhofar Governorate","Wlyt_ID":" Salalah","Road_ID":" ","Latitude":17.03645646,"Longitude":54.170380039999998,"GlobalID":"{CD9A972F-6F37-4085-930E-4FA5C6AC40E3}","Field":0,"Hotel_Clas":"Resort","Hotal_Star":4}},{"type":"Feature","id":46,"geometry":{"type":"Point","coordinates":[54.149181648641601,17.037759718873073]},"properties":{"FID":46,"Asset_ID":"HTE48","Name":"The Plaza Hotel and Resort","District_I":"al Sada al Janubiyya","Gov_ID":"Dhofar Governorate","Wlyt_ID":" Salalah","Road_ID":" ","Latitude":17.03775972,"Longitude":54.149181650000003,"GlobalID":"{E9AF1D76-8B61-40B7-B273-056EC14834AE}","Field":0,"Hotel_Clas":"Resort","Hotal_Star":4}},{"type":"Feature","id":47,"geometry":{"type":"Point","coordinates":[54.151254820182857,17.008820904469488]},"properties":{"FID":47,"Asset_ID":"HTE49","Name":"Crowne Plaza Resort Salalah by IHG","District_I":"Dahariz al Janubiyya","Gov_ID":"Dhofar Governorate","Wlyt_ID":" Salalah","Road_ID":" ","Latitude":17.0088209,"Longitude":54.151254819999998,"GlobalID":"{140BF19A-34E6-4CD6-A975-0124A84C6012}","Field":0,"Hotel_Clas":"Resorts","Hotal_Star":4}},{"type":"Feature","id":48,"geometry":{"type":"Point","coordinates":[54.160522747176422,17.009424502200797]},"properties":{"FID":48,"Asset_ID":"HTE50","Name":"بناية شاطئ بحر العرب","District_I":"Dahariz al Janubiyya","Gov_ID":"Dhofar Governorate","Wlyt_ID":" Salalah","Road_ID":" ","Latitude":17.009424500000002,"Longitude":54.160522749999998,"GlobalID":"{BE37F333-0D87-4639-B8BB-17CAABCF8286}","Field":0,"Hotel_Clas":"Luxury Hotel","Hotal_Star":4}},{"type":"Feature","id":49,"geometry":{"type":"Point","coordinates":[54.155974345389303,17.008786303372599]},"properties":{"FID":49,"Asset_ID":"HTE51","Name":"Millennium Beach Club","District_I":"Dahariz al Janubiyya","Gov_ID":"Dhofar Governorate","Wlyt_ID":" Salalah","Road_ID":" ","Latitude":17.008786300000001,"Longitude":54.155974350000001,"GlobalID":"{2EC15F78-868A-4F68-AA49-B9F0FFB80672}","Field":0,"Hotel_Clas":"Luxury Hotel","Hotal_Star":4}},{"type":"Feature","id":50,"geometry":{"type":"Point","coordinates":[54.174065419341872,17.016103511998594]},"properties":{"FID":50,"Asset_ID":"HTE52","Name":"Afnar Gulf","District_I":"Dahariz al Janubiyya","Gov_ID":"Dhofar Governorate","Wlyt_ID":" Salalah","Road_ID":" ","Latitude":17.016103510000001,"Longitude":54.174065419999998,"GlobalID":"{3D13821E-FD09-4474-96ED-A57426B1F7DF}","Field":0,"Hotel_Clas":"Furnished Apt","Hotal_Star":4}},{"type":"Feature","id":51,"geometry":{"type":"Point","coordinates":[54.08795912347729,17.017050167679503]},"properties":{"FID":51,"Asset_ID":"HTE53","Name":"Terhal for furnished apartments","District_I":"Salalah al Jadida","Gov_ID":"Dhofar Governorate","Wlyt_ID":" Salalah","Road_ID":" ","Latitude":17.017050170000001,"Longitude":54.087959120000001,"GlobalID":"{F35751EA-61EC-46D9-918E-23CD9A617300}","Field":0,"Hotel_Clas":"Furnished Apt","Hotal_Star":4}},{"type":"Feature","id":52,"geometry":{"type":"Point","coordinates":[54.086222025351681,17.0185038696821]},"properties":{"FID":52,"Asset_ID":"HTE54","Name":"Dhofar Oasis Hotel Apartments","District_I":"Salalah al Jadida","Gov_ID":"Dhofar Governorate","Wlyt_ID":" Salalah","Road_ID":" ","Latitude":17.01850387,"Longitude":54.086222030000002,"GlobalID":"{0D262B5F-BF19-4309-AD1A-3A02CA081D0B}","Field":0,"Hotel_Clas":"Furnished Apt","Hotal_Star":3}},{"type":"Feature","id":53,"geometry":{"type":"Point","coordinates":[54.085585947519348,17.018951543173909]},"properties":{"FID":53,"Asset_ID":"HTE55","Name":"Golden Seasons Apartments","District_I":"Salalah al Jadida","Gov_ID":"Dhofar Governorate","Wlyt_ID":" Salalah","Road_ID":" ","Latitude":17.01895154,"Longitude":54.085585950000002,"GlobalID":"{CFB26CC4-6D2F-4940-9895-5D029BDBB34E}","Field":0,"Hotel_Clas":"Mid-Rnge Hotel","Hotal_Star":3}},{"type":"Feature","id":54,"geometry":{"type":"Point","coordinates":[54.08828781394763,17.016243874770719]},"properties":{"FID":54,"Asset_ID":"HTE56","Name":"Al-Rehab Palace Salalah","District_I":"Salalah al Jadida","Gov_ID":"Dhofar Governorate","Wlyt_ID":" Salalah","Road_ID":" ","Latitude":17.01624387,"Longitude":54.088287809999997,"GlobalID":"{1D037AE1-8EB3-494A-AC16-E42F196FCF7B}","Field":0,"Hotel_Clas":"Mid-Rnge Hotel","Hotal_Star":3}},{"type":"Feature","id":55,"geometry":{"type":"Point","coordinates":[54.088296611417583,17.015202317703618]},"properties":{"FID":55,"Asset_ID":"HTE57","Name":"Gulf Complex Hotel & Apartments","District_I":"Salalah al Jadida","Gov_ID":"Dhofar Governorate","Wlyt_ID":" Salalah","Road_ID":" ","Latitude":17.01520232,"Longitude":54.08829661,"GlobalID":"{7A00ECA8-3777-4C42-84CE-F9510803401D}","Field":0,"Hotel_Clas":"Mid-Rnge Hotel","Hotal_Star":2}},{"type":"Feature","id":56,"geometry":{"type":"Point","coordinates":[54.086388738743523,17.014658017166546]},"properties":{"FID":56,"Asset_ID":"HTE58","Name":"Today House Suites","District_I":"Salalah al Jadida","Gov_ID":"Dhofar Governorate","Wlyt_ID":" Salalah","Road_ID":" ","Latitude":17.014658019999999,"Longitude":54.086388739999997,"GlobalID":"{B2E4181F-2EF0-430A-8599-DA58E1B9DFB6}","Field":0,"Hotel_Clas":"Mid-Rnge Hotel","Hotal_Star":3}},{"type":"Feature","id":57,"geometry":{"type":"Point","coordinates":[54.082824067512355,17.012039660568302]},"properties":{"FID":57,"Asset_ID":"HTE59","Name":"Salalah Peace House","District_I":"Salalah al Gharbiyya","Gov_ID":"Dhofar Governorate","Wlyt_ID":" Salalah","Road_ID":" ","Latitude":17.012039659999999,"Longitude":54.082824070000001,"GlobalID":"{F3947A8B-C4DF-46EF-ADBD-9E42BB901D6C}","Field":0,"Hotel_Clas":"Furnished Apt","Hotal_Star":4}},{"type":"Feature","id":58,"geometry":{"type":"Point","coordinates":[54.078298040778748,17.010532526751987]},"properties":{"FID":58,"Asset_ID":"HTE60","Name":"Darbat Hotel","District_I":"Salalah al Gharbiyya","Gov_ID":"Dhofar Governorate","Wlyt_ID":" Salalah","Road_ID":" ","Latitude":17.010532529999999,"Longitude":54.07829804,"GlobalID":"{134DA145-E5B5-4B78-AFF3-E659E743C34A}","Field":0,"Hotel_Clas":"Mid-Rnge Hotel","Hotal_Star":3}},{"type":"Feature","id":59,"geometry":{"type":"Point","coordinates":[54.059167154196693,17.005059044216047]},"properties":{"FID":59,"Asset_ID":"HTE61","Name":"Nakheel apartment for rent","District_I":"al Wadi","Gov_ID":"Dhofar Governorate","Wlyt_ID":" Salalah","Road_ID":" ","Latitude":17.005059039999999,"Longitude":54.05916715,"GlobalID":"{0C5BDF8B-F4D8-437F-BD54-2D492757E147}","Field":0,"Hotel_Clas":"Furnished Apt","Hotal_Star":5}},{"type":"Feature","id":60,"geometry":{"type":"Point","coordinates":[54.060387400830585,17.006832726317306]},"properties":{"FID":60,"Asset_ID":"HTE62","Name":"DAR AL JUMAN","District_I":"al Wadi","Gov_ID":"Dhofar Governorate","Wlyt_ID":" Salalah","Road_ID":" ","Latitude":17.006832729999999,"Longitude":54.060387400000003,"GlobalID":"{49122A6B-2553-44EF-BA90-51829813F4E4}","Field":0,"Hotel_Clas":"Furnished Apt","Hotal_Star":4}},{"type":"Feature","id":61,"geometry":{"type":"Point","coordinates":[54.081028981200433,17.015382464218263]},"properties":{"FID":61,"Asset_ID":"HTE63","Name":"Super OYO 149 Bait Al Ghubaira Furnished Flat","District_I":"Salalah al Jadida","Gov_ID":"Dhofar Governorate","Wlyt_ID":" Salalah","Road_ID":" ","Latitude":17.015382460000001,"Longitude":54.081028979999999,"GlobalID":"{029AA689-AAFB-447D-AE53-ACCA2B1AF802}","Field":0,"Hotel_Clas":"Mid-Rnge Hotel","Hotal_Star":3}},{"type":"Feature","id":62,"geometry":{"type":"Point","coordinates":[54.06731876142176,17.016249368061796]},"properties":{"FID":62,"Asset_ID":"HTE64","Name":"SWEET DREAM FURNISHED APARTMENT","District_I":"al Wadi","Gov_ID":"Dhofar Governorate","Wlyt_ID":" Salalah","Road_ID":" ","Latitude":17.016249370000001,"Longitude":54.067318759999999,"GlobalID":"{BEEBDB6C-82AC-4560-B4DF-99A30FBDC7C0}","Field":0,"Hotel_Clas":"Furnished Apt","Hotal_Star":4}},{"type":"Feature","id":63,"geometry":{"type":"Point","coordinates":[54.067486046506112,17.020278388054056]},"properties":{"FID":63,"Asset_ID":"HTE65","Name":"Taj Saba Furnture apartments","District_I":"al Wadi","Gov_ID":"Dhofar Governorate","Wlyt_ID":" Salalah","Road_ID":" ","Latitude":17.020278390000001,"Longitude":54.067486049999999,"GlobalID":"{ED9E8F27-CCD8-4361-B8E8-94C1A3B7C098}","Field":0,"Hotel_Clas":"Furnished Apt","Hotal_Star":4}},{"type":"Feature","id":64,"geometry":{"type":"Point","coordinates":[54.067660372955615,17.020687012640852]},"properties":{"FID":64,"Asset_ID":"HTE66","Name":"Daar Al Maqam Suites Hotel Apartments","District_I":"al Wadi","Gov_ID":"Dhofar Governorate","Wlyt_ID":" Salalah","Road_ID":" ","Latitude":17.02068701,"Longitude":54.067660369999999,"GlobalID":"{16CC425D-7F0F-4052-B58A-FE457FB00A1B}","Field":0,"Hotel_Clas":"Furnished Apt","Hotal_Star":4}},{"type":"Feature","id":65,"geometry":{"type":"Point","coordinates":[54.081038792852524,17.021729801500609]},"properties":{"FID":65,"Asset_ID":"HTE68","Name":"منارة العروبة للشقق المفروشه","District_I":"Salalah al Jadida","Gov_ID":"Dhofar Governorate","Wlyt_ID":" Salalah","Road_ID":" ","Latitude":17.021729799999999,"Longitude":54.081038790000001,"GlobalID":"{EE02CC3A-B8AD-494C-B5B0-01165E19C55A}","Field":0,"Hotel_Clas":"Furnished Apt","Hotal_Star":5}}]}