{"type":"FeatureCollection","features":[{"type":"Feature","id":0,"geometry":{"type":"Point","coordinates":[54.088772878146756,17.01773227528393]},"properties":{"FID":0,"Asset_ID":"MRO1","Name":"مؤسسة أبو جمال (وساطة في جلب الايدي العاملة )","District_I":"Salalah al Jadida","Gov_ID":"Dhofar Governorate","Wlyt_ID":"Salalah","Road_ID":" ","Latitude":17.017732280000001,"Longitude":54.08877288,"GlobalID":"{E9F97E6A-FBEE-4C77-993E-2A5B32902A8F}"}},{"type":"Feature","id":1,"geometry":{"type":"Point","coordinates":[54.088581592600434,17.017734993667254]},"properties":{"FID":1,"Asset_ID":"MRO2","Name":"مؤسسة بن فارس الوطنية للتجارة و المقاولات (مكتب استيراد العمالة الوافدة )","District_I":"Salalah al Jadida","Gov_ID":"Dhofar Governorate","Wlyt_ID":"Salalah","Road_ID":" ","Latitude":17.017734990000001,"Longitude":54.088581589999997,"GlobalID":"{99F6D018-C99E-4FC6-B21F-A811FB0567E9}"}},{"type":"Feature","id":2,"geometry":{"type":"Point","coordinates":[54.088668378245373,17.017729999585679]},"properties":{"FID":2,"Asset_ID":"MRO3","Name":"مؤسسة السماحة اللاستثمار ( مكاتب عمالة )","District_I":"Salalah al Jadida","Gov_ID":"Dhofar Governorate","Wlyt_ID":"Salalah","Road_ID":" ","Latitude":17.01773,"Longitude":54.088668380000001,"GlobalID":"{32D49A1A-6D2D-484A-B77B-8AAD7D648FE6}"}},{"type":"Feature","id":3,"geometry":{"type":"Point","coordinates":[54.088491440253812,17.017748125912377]},"properties":{"FID":3,"Asset_ID":"MRO4","Name":"مكاتب العماله (للاستقدام)","District_I":"Salalah al Jadida","Gov_ID":"Dhofar Governorate","Wlyt_ID":"Salalah","Road_ID":" ","Latitude":17.017748130000001,"Longitude":54.088491439999999,"GlobalID":"{474109C8-2F91-48CD-BAA5-3CE3801BCA4F}"}},{"type":"Feature","id":4,"geometry":{"type":"Point","coordinates":[54.088427304584009,17.017755783916538]},"properties":{"FID":4,"Asset_ID":"MRO5","Name":"مكاتب العمالة (الاستقدام)","District_I":"Salalah al Jadida","Gov_ID":"Dhofar Governorate","Wlyt_ID":"Salalah","Road_ID":" ","Latitude":17.017755780000002,"Longitude":54.088427299999999,"GlobalID":"{B88EDCAA-AA03-4AF2-BBD3-A763534CAED2}"}},{"type":"Feature","id":5,"geometry":{"type":"Point","coordinates":[54.088356692916676,17.017762959065188]},"properties":{"FID":5,"Asset_ID":"MRO6","Name":"مكاتب عمالة","District_I":"Salalah al Jadida","Gov_ID":"Dhofar Governorate","Wlyt_ID":"Salalah","Road_ID":" ","Latitude":17.017762959999999,"Longitude":54.088356689999998,"GlobalID":"{70BF66AF-A91D-4450-9A51-97D4FC70660D}"}},{"type":"Feature","id":6,"geometry":{"type":"Point","coordinates":[54.088371711124815,17.017761224617441]},"properties":{"FID":6,"Asset_ID":"MRO7","Name":"أم الأعمار (مكاتب العمالة الاستقدام)","District_I":"Salalah al Jadida","Gov_ID":"Dhofar Governorate","Wlyt_ID":"Salalah","Road_ID":" ","Latitude":17.017761220000001,"Longitude":54.088371709999997,"GlobalID":"{73BD0CD0-9DF8-4C96-B487-901A9D1E3BAC}"}},{"type":"Feature","id":7,"geometry":{"type":"Point","coordinates":[54.079679068481838,17.017097035347195]},"properties":{"FID":7,"Asset_ID":"MRO8","Name":"شركة النبيل الفضي للتجارة (مكاتب العمالة)","District_I":"Salalah al Jadida","Gov_ID":"Dhofar Governorate","Wlyt_ID":"Salalah","Road_ID":" ","Latitude":17.017097039999999,"Longitude":54.079679069999997,"GlobalID":"{6D9BC1FC-1F1B-4AED-B2AA-4B0AC1536237}"}},{"type":"Feature","id":8,"geometry":{"type":"Point","coordinates":[54.079826954010443,17.016757677258575]},"properties":{"FID":8,"Asset_ID":"MRO9","Name":"مؤسسة بن فارس الوطنية للتجارة و المقاولات (مكاتب العمالة )","District_I":"Salalah al Jadida","Gov_ID":"Dhofar Governorate","Wlyt_ID":"Salalah","Road_ID":" ","Latitude":17.016757680000001,"Longitude":54.079826949999998,"GlobalID":"{18ADBE43-7634-4FFE-B65F-2ADEBF32F371}"}},{"type":"Feature","id":9,"geometry":{"type":"Point","coordinates":[54.066698959377682,17.017674214922174]},"properties":{"FID":9,"Asset_ID":"MRO10","Name":"الطرق العملاقة المتحدة (مكاتب العمالى الاستقدام)","District_I":"al Wadi","Gov_ID":"Dhofar Governorate","Wlyt_ID":"Salalah","Road_ID":" ","Latitude":17.017674209999999,"Longitude":54.066698959999997,"GlobalID":"{CE7008AD-6934-4103-9060-67D1125CAF47}"}},{"type":"Feature","id":10,"geometry":{"type":"Point","coordinates":[54.088132846553179,17.018076288088917]},"properties":{"FID":10,"Asset_ID":"MRO11","Name":"مؤسسة فله للتجارة و المقاولات (مكتب الاستقدام العمالة)","District_I":"Salalah al Jadida","Gov_ID":"Dhofar Governorate","Wlyt_ID":"Salalah","Road_ID":" ","Latitude":17.01807629,"Longitude":54.088132850000001,"GlobalID":"{49E28D55-9E0F-4CE7-B1A1-4056EB996D72}"}}]}