{"type":"FeatureCollection","features":[{"type":"Feature","id":0,"geometry":{"type":"Point","coordinates":[54.090593654728352,17.019522296718801]},"properties":{"FID":0,"Asset_ID":"PO1","Name":"مكتب بريد عمان","District_I":"Salalah al Jadida","Gov_ID":"Dhofar Governorate","Wlyt_ID":"Salalah","Road_ID":" ","Latitude":17.019522299999998,"Longitude":54.090593650000002,"GlobalID":"{650800B6-BE7F-40E6-9DCE-D18FD412DCCC}"}},{"type":"Feature","id":1,"geometry":{"type":"Point","coordinates":[54.091489371709571,17.019409830016826]},"properties":{"FID":1,"Asset_ID":"PO2","Name":"Central Post Office","District_I":"Salalah al Jadida","Gov_ID":"Dhofar Governorate","Wlyt_ID":"Salalah","Road_ID":" ","Latitude":17.019409830000001,"Longitude":54.091489369999998,"GlobalID":"{51107B3F-2EE1-48CB-B0C4-C3CE4406A1CD}"}},{"type":"Feature","id":2,"geometry":{"type":"Point","coordinates":[54.091278106135654,17.019257593118923]},"properties":{"FID":2,"Asset_ID":"PO3","Name":"ASYAD EXPRESS","District_I":"Salalah al Jadida","Gov_ID":"Dhofar Governorate","Wlyt_ID":"Salalah","Road_ID":" ","Latitude":17.019257589999999,"Longitude":54.091278109999998,"GlobalID":"{52F719F5-0C9D-4B40-95B8-7446368984C7}"}},{"type":"Feature","id":3,"geometry":{"type":"Point","coordinates":[54.157666666877653,17.024861110606558]},"properties":{"FID":3,"Asset_ID":"PO4","Name":"Oman Post Office - Al Dahareez","District_I":"Dahariz al Shamaliyya","Gov_ID":"Dhofar Governorate","Wlyt_ID":"Salalah","Road_ID":" ","Latitude":17.02486111,"Longitude":54.157666669999998,"GlobalID":"{106E24D7-808D-465A-9391-BA8FC5710EE8}"}},{"type":"Feature","id":4,"geometry":{"type":"Point","coordinates":[54.14733333296347,17.055611111449103]},"properties":{"FID":4,"Asset_ID":"PO5","Name":"Oman Post Office - Al Saadah","District_I":"al Sada al Janubiyya","Gov_ID":"Dhofar Governorate","Wlyt_ID":"Salalah","Road_ID":" ","Latitude":17.055611110000001,"Longitude":54.147333330000002,"GlobalID":"{1B9003DF-8377-4BF2-A38B-E9CFDF8C4294}"}},{"type":"Feature","id":5,"geometry":{"type":"Point","coordinates":[54.035555556063962,16.999166666679393]},"properties":{"FID":5,"Asset_ID":"PO6","Name":"Oman Post Office - Al Awqadain","District_I":"Auqad al Janubiyya","Gov_ID":"Dhofar Governorate","Wlyt_ID":"Salalah","Road_ID":" ","Latitude":16.999166670000001,"Longitude":54.035555559999999,"GlobalID":"{DE883886-7AB6-497C-B73C-1B6897A8106E}"}}]}